[
    {
        "id": 1,
        "name": "Amritsar",
        "lat": 31.6343,
        "lon": 74.8737
    },
    {
        "id": 2,
        "name": "Barnala",
        "lat": 30.3745,
        "lon": 75.5487
    },
    {
        "id": 3,
        "name": "Bathinda",
        "lat": 30.2110,
        "lon": 74.9455
    },
    {
        "id": 4,
        "name": "Faridkot",
        "lat": 30.6754,
        "lon": 74.7490
    },
    {
        "id": 5,
        "name": "Fatehgarh Sahib",
        "lat": 30.6438,
        "lon": 76.3479
    },
    {
        "id": 6,
        "name": "Fazilka",
        "lat": 30.4021,
        "lon": 74.0284
    },
    {
        "id": 7,
        "name": "Ferozepur",
        "lat": 30.9234,
        "lon": 74.6102
    },
    {
        "id": 8,
        "name": "Gurdaspur",
        "lat": 32.0333,
        "lon": 75.4000
    },
    {
        "id": 9,
        "name": "Hoshiarpur",
        "lat": 31.5372,
        "lon": 75.9127
    },
    {
        "id": 10,
        "name": "Jalandhar",
        "lat": 31.3256,
        "lon": 75.5792
    },
    {
        "id": 12,
        "name": "Kapurthala",
        "lat": 31.3794,
        "lon": 75.3847
    },
    {
        "id": 11,
        "name": "Ludhiana",
        "lat": 30.9120,
        "lon": 75.8538
    },
    {
        "id": 23,
        "name": "Malerkotla",
        "lat": 30.5309,
        "lon": 75.8795
    },
    {
        "id": 13,
        "name": "Mansa",
        "lat": 29.9884,
        "lon": 75.4017
    },
    {
        "id": 14,
        "name": "Moga",
        "lat": 30.8038,
        "lon": 75.1494
    },
    {
        "id": 19,
        "name": "Mohali",
        "lat": 30.6800,
        "lon": 76.7221
    },
    {
        "id": 17,
        "name": "Pathankot",
        "lat": 32.2659,
        "lon": 75.6469
    },
    {
        "id": 16,
        "name": "Patiala",
        "lat": 30.3400,
        "lon": 76.3800
    },
    {
        "id": 18,
        "name": "Rupnagar",
        "lat": 30.9700,
        "lon": 76.5300
    },
    {
        "id": 20,
        "name": "Sangrur",
        "lat": 30.2300,
        "lon": 75.8300
    },
    {
        "id": 21,
        "name": "SBS Nagar",
        "lat": 31.1253,
        "lon": 76.1164
    },
    {
        "id": 15,
        "name": "Sri Muktsar Sahib",
        "lat": 30.4800,
        "lon": 74.5117
    },
    {
        "id": 22,
        "name": "Tarn Taran Sahib",
        "lat": 31.4491,
        "lon": 74.9205
    }
]
